,lat,lng,city,country,temp_max,humidity,wind_speed,cloudiness,Date
0,-86.79,-3.66,hermanus,ZA,58.7,92.0,4.16,12.0,2018-04-03
1,22.93,-38.54,ponta do sol,BR,72.2,90.0,4.16,12.0,2018-04-03
2,28.42,-141.93,hilo,US,82.4,69.0,6.93,75.0,2018-04-03
3,-59.93,147.17,hobart,AU,59.0,58.0,8.05,0.0,2018-04-03
4,-57.62,120.27,albany,US,39.2,86.0,4.7,90.0,2018-04-03
5,41.47,81.54,aksu,KZ,23.0,100.0,2.24,0.0,2018-04-03
6,70.44,-11.12,hofn,IS,33.86,100.0,23.73,0.0,2018-04-03
7,63.64,-125.18,norman wells,CA,10.4,51.0,9.17,75.0,2018-04-03
8,25.07,-161.42,kapaa,US,78.8,65.0,14.99,90.0,2018-04-03
9,44.49,76.77,boralday,KZ,30.2,86.0,4.47,20.0,2018-04-03
10,-17.65,-17.9,georgetown,GY,80.6,78.0,13.87,20.0,2018-04-03
11,-87.76,-85.0,ushuaia,AR,42.8,60.0,6.93,20.0,2018-04-03
12,-65.66,177.61,kaitangata,NZ,61.22,58.0,33.35,0.0,2018-04-03
13,-21.22,-150.34,moerai,PF,75.08,100.0,8.75,88.0,2018-04-03
14,-34.31,-78.68,lebu,ET,62.6,63.0,11.41,75.0,2018-04-03
15,-14.91,-28.2,maragogi,BR,77.6,93.0,7.4,32.0,2018-04-03
16,-27.7,95.15,carnarvon,ZA,63.38,72.0,7.4,80.0,2018-04-03
17,-49.35,-175.76,vaini,IN,67.16,91.0,2.37,0.0,2018-04-03
18,-19.67,42.32,morondava,MG,80.03,93.0,5.39,56.0,2018-04-03
19,47.71,66.26,zhezkazgan,KZ,29.0,71.0,16.69,0.0,2018-04-03
20,-15.31,112.53,karratha,AU,77.15,85.0,3.49,0.0,2018-04-03
21,-22.54,-48.01,sao pedro,PT,55.4,87.0,10.29,75.0,2018-04-03
22,49.28,78.35,semey,KZ,20.0,88.0,7.4,20.0,2018-04-03
23,-77.19,-87.05,punta arenas,CL,44.6,65.0,4.7,75.0,2018-04-03
24,49.55,114.21,aksha,RU,13.97,42.0,3.38,64.0,2018-04-03
25,-18.44,-157.52,avarua,CK,84.2,79.0,5.82,75.0,2018-04-03
26,29.45,-90.34,houma,CN,47.36,50.0,4.05,64.0,2018-04-03
27,89.37,-106.3,yellowknife,CA,8.6,42.0,13.87,20.0,2018-04-03
28,-30.13,123.06,esperance,TT,82.4,65.0,18.34,20.0,2018-04-03
29,59.79,156.3,omsukchan,RU,27.02,87.0,11.43,88.0,2018-04-03
30,-54.28,-154.28,mataura,NZ,60.77,66.0,27.76,68.0,2018-04-03
31,64.37,75.69,gubkinskiy,RU,-3.05,51.0,6.85,56.0,2018-04-03
32,83.82,23.84,longyearbyen,NO,8.6,55.0,17.22,0.0,2018-04-03
33,73.22,126.11,tiksi,RU,2.36,77.0,6.62,56.0,2018-04-03
34,-45.04,-79.09,castro,CL,59.78,95.0,11.32,92.0,2018-04-03
35,42.29,-3.32,burgos,ES,42.8,87.0,19.46,0.0,2018-04-03
36,65.34,-54.52,maniitsoq,GL,26.3,80.0,2.04,0.0,2018-04-03
37,85.24,-154.26,barrow,AR,75.89,40.0,7.96,0.0,2018-04-03
38,-3.28,-150.49,atuona,PF,80.75,100.0,16.46,100.0,2018-04-03
39,33.07,-102.27,brownfield,US,68.0,19.0,21.92,1.0,2018-04-03
40,68.46,133.62,verkhoyansk,RU,12.08,79.0,5.5,88.0,2018-04-03
41,-23.33,-1.87,jamestown,AU,44.57,85.0,5.61,0.0,2018-04-03
42,-18.1,172.72,isangel,VU,79.13,100.0,14.23,76.0,2018-04-03
43,30.24,121.38,xushan,CN,68.0,88.0,2.24,92.0,2018-04-03
44,6.2,128.61,san isidro,PH,69.95,99.0,0.69,76.0,2018-04-03
45,-15.91,-78.82,pisco,PE,75.2,64.0,21.92,0.0,2018-04-03
46,-35.56,-28.06,arraial do cabo,BR,86.0,78.0,2.24,40.0,2018-04-03
47,-51.75,131.27,mount gambier,AU,44.03,87.0,2.26,0.0,2018-04-03
48,-39.88,-72.17,panguipulli,CL,62.6,82.0,5.82,90.0,2018-04-03
49,-10.91,-103.54,puerto ayora,EC,82.4,69.0,9.17,20.0,2018-04-03
50,-52.42,-52.55,necochea,AR,73.91,61.0,5.61,0.0,2018-04-03
51,-37.89,80.58,bambous virieux,MU,80.6,88.0,8.05,75.0,2018-04-03
52,-27.48,65.79,mahebourg,MU,80.6,88.0,8.05,75.0,2018-04-03
53,27.86,171.28,butaritari,KI,79.58,100.0,5.95,56.0,2018-04-03
54,-3.42,-151.1,faanui,PF,81.56,100.0,10.42,80.0,2018-04-03
55,34.59,-1.83,nador,MA,62.6,77.0,10.29,0.0,2018-04-03
56,68.54,-174.01,provideniya,RU,32.0,100.0,13.42,0.0,2018-04-03
57,-84.54,-132.76,rikitea,PF,80.03,100.0,12.44,88.0,2018-04-03
58,-87.84,38.68,port elizabeth,US,48.2,93.0,4.7,90.0,2018-04-03
59,-76.55,55.34,east london,ZA,73.1,100.0,2.59,88.0,2018-04-03
60,29.43,99.82,xichang,CN,48.53,53.0,1.59,48.0,2018-04-03
61,47.76,91.25,ulaangom,MN,5.96,73.0,5.06,56.0,2018-04-03
62,-81.6,156.47,bluff,AU,72.65,63.0,16.8,88.0,2018-04-03
63,-38.03,-0.88,saldanha,PT,46.1,96.0,15.68,92.0,2018-04-03
64,-13.88,-73.44,andahuaylas,PE,61.85,43.0,2.37,20.0,2018-04-03
65,1.27,-115.14,san patricio,PY,80.66,63.0,3.38,48.0,2018-04-03
66,37.23,92.22,hami,CN,46.37,48.0,13.33,88.0,2018-04-03
67,27.19,-87.78,warrington,GB,46.4,87.0,8.05,40.0,2018-04-03
68,-86.69,83.33,busselton,AU,63.56,100.0,16.69,24.0,2018-04-03
69,-11.67,-85.01,chicama,PE,69.8,83.0,11.41,36.0,2018-04-03
70,38.76,53.48,balkanabat,TM,47.45,85.0,1.92,20.0,2018-04-03
71,3.52,2.98,cotonou,BJ,84.2,79.0,12.75,40.0,2018-04-03
72,-24.82,-29.94,vila velha,BR,82.4,78.0,4.7,0.0,2018-04-03
73,-4.54,-64.16,coari,BR,80.93,83.0,4.61,12.0,2018-04-03
74,81.35,-60.5,narsaq,GL,37.4,55.0,4.7,0.0,2018-04-03
75,20.97,45.73,riyadh,SA,75.2,33.0,3.36,75.0,2018-04-03
76,81.3,-130.12,tuktoyaktuk,CA,-0.41,77.0,3.36,75.0,2018-04-03
77,27.17,-1.02,adrar,DZ,80.6,12.0,9.17,0.0,2018-04-03
78,26.76,26.13,marsa matruh,EG,62.6,77.0,12.75,40.0,2018-04-03
79,84.78,148.23,chokurdakh,RU,20.0,80.0,7.85,68.0,2018-04-03
80,-4.47,143.28,ambunti,PG,74.0,100.0,2.26,32.0,2018-04-03
81,56.71,-168.85,bethel,US,26.6,58.0,24.16,1.0,2018-04-03
82,-2.11,52.34,victoria,BN,78.8,94.0,3.15,75.0,2018-04-03
83,61.18,29.65,kuznechnoye,RU,25.49,70.0,10.42,0.0,2018-04-03
84,60.43,129.27,pokrovsk,UA,35.57,92.0,3.71,0.0,2018-04-03
85,29.76,-129.77,pacific grove,US,73.4,63.0,10.29,1.0,2018-04-03
86,73.24,142.2,deputatskiy,RU,-3.41,60.0,2.71,32.0,2018-04-03
87,61.1,45.49,udimskiy,RU,35.3,96.0,18.59,68.0,2018-04-03
88,-42.1,24.2,plettenberg bay,ZA,65.27,93.0,10.87,48.0,2018-04-03
89,31.14,-10.82,agadir,MA,60.8,82.0,11.41,20.0,2018-04-03
90,-4.34,30.41,kasulu,TZ,64.82,94.0,2.59,88.0,2018-04-03
91,70.77,178.43,leningradskiy,RU,15.86,97.0,23.73,20.0,2018-04-03
92,68.1,51.5,naryan-mar,RU,32.42,91.0,14.56,92.0,2018-04-03
93,23.89,-67.95,cockburn town,TC,77.15,99.0,14.45,68.0,2018-04-03
94,41.5,75.92,at-bashi,KG,12.89,55.0,2.59,0.0,2018-04-03
95,-49.03,26.3,kruisfontein,ZA,66.08,95.0,10.2,0.0,2018-04-03
96,83.4,81.38,dikson,RU,-10.52,73.0,10.42,12.0,2018-04-03
97,45.87,161.71,severo-kurilsk,RU,32.6,97.0,16.91,92.0,2018-04-03
98,-3.42,73.05,hithadhoo,MV,83.0,100.0,4.27,80.0,2018-04-03
99,1.82,25.25,buta,CD,75.35,92.0,1.92,76.0,2018-04-03
100,87.53,-48.71,upernavik,GL,18.38,100.0,9.08,88.0,2018-04-03
101,-28.96,2.62,luderitz,NA,66.2,72.0,3.36,56.0,2018-04-03
102,-76.22,44.63,port alfred,ZA,68.78,98.0,3.04,44.0,2018-04-03
103,35.92,105.71,pingliang,CN,47.72,66.0,7.63,80.0,2018-04-03
104,71.21,174.28,komsomolskiy,RU,14.96,86.0,13.56,92.0,2018-04-03
105,52.18,-32.44,lagoa,PT,59.0,87.0,13.87,20.0,2018-04-03
106,-35.3,171.21,ahipara,NZ,64.55,98.0,3.15,44.0,2018-04-03
107,-59.25,-12.78,cape town,ZA,64.4,82.0,9.17,0.0,2018-04-03
108,43.38,-160.41,kodiak,US,35.6,80.0,26.4,90.0,2018-04-03
109,33.09,97.63,tezu,IN,62.12,51.0,1.92,0.0,2018-04-03
110,14.58,-90.35,san jose pinula,GT,69.8,68.0,16.11,40.0,2018-04-03
111,10.3,-101.6,acapulco,MX,82.4,69.0,11.41,5.0,2018-04-03
112,21.91,-45.67,bathsheba,BB,78.8,74.0,14.99,40.0,2018-04-03
113,64.96,-40.37,tasiilaq,GL,19.4,73.0,20.8,88.0,2018-04-03
114,54.48,3.89,den helder,NL,46.4,93.0,12.75,90.0,2018-04-03
115,28.15,-56.42,saint george,GR,46.4,87.0,4.7,0.0,2018-04-03
116,6.24,71.42,kulhudhuffushi,MV,83.27,100.0,6.29,88.0,2018-04-03
117,2.88,130.63,sorong,ID,78.14,100.0,3.15,56.0,2018-04-03
118,22.18,21.13,faya,SA,60.8,63.0,3.71,0.0,2018-04-03
119,63.65,-7.82,vestmanna,FO,26.6,100.0,1.12,24.0,2018-04-03
120,42.34,-60.51,port hawkesbury,CA,33.8,55.0,9.17,1.0,2018-04-03
121,72.79,-51.48,ilulissat,GL,15.8,78.0,5.82,20.0,2018-04-03
122,62.33,-155.98,kenai,US,33.8,42.0,14.99,90.0,2018-04-03
123,30.28,136.59,shingu,JP,61.76,91.0,10.2,0.0,2018-04-03
124,52.95,8.9,syke,DE,57.2,71.0,9.17,0.0,2018-04-03
125,57.31,168.27,nikolskoye,RU,30.2,63.0,4.47,20.0,2018-04-03
126,-7.99,41.6,kilindoni,TZ,80.03,100.0,9.64,92.0,2018-04-03
127,26.23,82.62,jalalpur,IN,73.19,60.0,2.93,0.0,2018-04-03
128,-52.35,-37.57,rocha,UY,68.06,84.0,7.4,80.0,2018-04-03
129,40.38,-98.16,hastings,NZ,67.16,81.0,8.75,0.0,2018-04-03
130,-70.0,18.39,bredasdorp,ZA,66.17,96.0,15.46,12.0,2018-04-03
131,-29.07,109.21,geraldton,CA,21.2,22.0,5.82,40.0,2018-04-03
132,57.31,116.56,kropotkin,RU,40.7,87.0,8.63,0.0,2018-04-03
133,-43.54,169.63,wanaka,NZ,56.72,50.0,11.54,0.0,2018-04-03
134,61.04,-102.37,flin flon,CA,19.4,34.0,9.17,5.0,2018-04-03
135,16.72,95.31,wakema,MM,78.05,75.0,4.94,56.0,2018-04-03
136,-5.31,-24.87,cabedelo,BR,80.6,78.0,6.93,20.0,2018-04-03
137,62.63,93.2,severo-yeniseyskiy,RU,5.15,58.0,8.19,56.0,2018-04-03
138,54.89,-52.91,saint anthony,US,44.6,22.0,17.22,1.0,2018-04-03
139,70.03,-137.52,aklavik,CA,5.0,65.0,9.17,90.0,2018-04-03
140,7.21,137.41,airai,TL,67.7,87.0,1.59,44.0,2018-04-03
141,60.47,-114.51,hay river,CA,8.6,60.0,11.41,40.0,2018-04-03
142,-0.27,133.6,manokwari,ID,82.55,98.0,10.65,20.0,2018-04-03
143,-21.25,3.93,namibe,AO,79.04,100.0,10.42,92.0,2018-04-03
144,43.3,112.94,erenhot,CN,19.55,73.0,9.31,0.0,2018-04-03
145,6.72,100.65,sadao,TH,78.8,88.0,2.24,75.0,2018-04-03
146,60.99,84.38,belyy yar,RU,17.6,78.0,4.47,0.0,2018-04-03
147,28.07,-25.02,los llanos de aridane,ES,64.4,72.0,6.93,32.0,2018-04-03
148,68.15,146.55,belaya gora,RU,2.18,59.0,2.82,0.0,2018-04-03
149,8.71,48.13,garowe,SO,74.81,76.0,9.53,12.0,2018-04-03
150,-73.78,132.88,new norfolk,AU,59.0,58.0,8.05,0.0,2018-04-03
151,-15.55,65.59,grand gaube,MU,80.6,88.0,8.05,75.0,2018-04-03
152,-57.68,74.63,souillac,FR,53.6,81.0,13.87,0.0,2018-04-03
153,-40.26,-69.35,neuquen,AR,73.4,49.0,3.36,0.0,2018-04-03
154,38.91,-103.51,cimarron hills,US,51.8,24.0,11.41,20.0,2018-04-03
155,72.62,-164.92,nome,US,84.2,65.0,11.41,75.0,2018-04-03
156,-21.95,30.13,beitbridge,ZA,73.1,71.0,8.41,0.0,2018-04-03
157,76.15,113.59,saskylakh,RU,-20.6,30.0,5.39,0.0,2018-04-03
158,40.04,-125.14,fortuna,ES,60.8,93.0,4.7,0.0,2018-04-03
159,-20.04,-149.27,teahupoo,PF,87.8,62.0,3.36,75.0,2018-04-03
160,62.58,94.22,baykit,RU,10.91,81.0,6.73,56.0,2018-04-03
161,27.23,-77.28,marsh harbour,BS,74.45,100.0,12.66,36.0,2018-04-03
162,-39.74,-95.51,ancud,CL,60.5,97.0,11.65,92.0,2018-04-03
163,-1.28,26.44,kindu,CD,73.73,89.0,2.37,92.0,2018-04-03
164,-22.42,158.05,hervey bay,AU,72.74,100.0,16.8,100.0,2018-04-03
165,56.45,-70.19,port-cartier,CA,32.0,100.0,11.41,40.0,2018-04-03
166,63.01,45.83,dvinskoy,RU,33.41,94.0,11.65,88.0,2018-04-03
167,31.16,-79.97,wilmington island,US,84.2,57.0,13.87,1.0,2018-04-03
168,-25.33,161.34,pouembout,NC,74.27,83.0,4.83,80.0,2018-04-03
169,53.04,-96.39,gimli,CA,21.26,100.0,4.94,12.0,2018-04-03
170,-46.1,-58.71,viedma,AR,81.92,38.0,13.11,8.0,2018-04-03
171,30.75,139.5,shimoda,JP,64.46,99.0,11.21,0.0,2018-04-03
172,25.65,-88.73,dzilam gonzalez,MX,89.3,47.0,9.42,0.0,2018-04-03
173,-1.36,80.89,matara,PE,61.85,43.0,2.37,20.0,2018-04-03
174,61.58,108.63,yerbogachen,RU,4.61,68.0,2.59,8.0,2018-04-03
175,54.9,-143.36,haines junction,CA,11.0,75.0,2.93,80.0,2018-04-03
176,53.01,5.87,heerenveen,NL,55.4,100.0,4.7,90.0,2018-04-03
177,-55.99,-36.27,mar del plata,AR,64.1,64.0,4.27,80.0,2018-04-03
178,-4.24,-51.38,altamira,BR,77.0,94.0,2.24,0.0,2018-04-03
179,68.16,-62.28,pangnirtung,CA,28.4,63.0,8.05,75.0,2018-04-03
180,52.9,111.46,sosnovo-ozerskoye,RU,6.05,65.0,3.71,56.0,2018-04-03
181,-4.26,139.95,vanimo,PG,84.26,97.0,15.68,32.0,2018-04-03
182,-4.83,-4.19,tabou,CI,81.83,100.0,10.65,44.0,2018-04-03
183,59.84,171.1,tilichiki,RU,33.32,81.0,11.43,0.0,2018-04-03
184,35.78,114.34,yigou,CN,43.31,57.0,16.35,48.0,2018-04-03
185,24.91,8.83,gat,SN,77.0,65.0,9.17,0.0,2018-04-03
186,9.19,-20.49,bubaque,GW,73.4,78.0,11.41,0.0,2018-04-03
187,66.66,100.61,tura,IN,66.44,84.0,1.59,0.0,2018-04-03
188,83.36,98.03,khatanga,RU,-24.11,36.0,3.38,24.0,2018-04-03
189,41.04,-75.42,east stroudsburg,US,41.0,100.0,4.7,92.0,2018-04-03
190,52.48,41.69,satinka,RU,32.6,98.0,12.77,92.0,2018-04-03
191,16.36,-72.63,jacmel,HT,84.2,62.0,11.41,40.0,2018-04-03
192,57.72,-59.71,saint-augustin,FR,60.8,71.0,10.29,88.0,2018-04-03
193,6.49,61.73,ugoofaaru,MV,84.53,100.0,5.73,20.0,2018-04-03
194,50.87,96.21,saryg-sep,RU,14.33,65.0,5.5,68.0,2018-04-03
195,-19.1,-62.77,abapo,BO,69.41,88.0,2.15,92.0,2018-04-03
196,16.42,76.02,muddebihal,IN,73.82,66.0,8.41,0.0,2018-04-03
197,-22.87,171.49,tadine,NC,78.41,99.0,17.69,80.0,2018-04-03
198,64.23,71.62,nadym,RU,6.77,72.0,11.1,68.0,2018-04-03
199,83.59,-90.52,qaanaaq,GL,3.53,81.0,8.08,0.0,2018-04-03
200,8.24,-29.51,sao filipe,CV,69.11,100.0,13.58,32.0,2018-04-03
201,-20.35,155.14,yeppoon,AU,69.8,94.0,11.41,75.0,2018-04-03
202,49.82,139.78,vysokogornyy,RU,17.75,67.0,10.98,68.0,2018-04-03
203,44.88,32.22,zaozerne,UA,45.83,83.0,10.65,32.0,2018-04-03
204,35.91,-82.16,elizabethton,US,78.8,39.0,13.87,20.0,2018-04-03
205,-23.24,-26.91,caravelas,BR,81.29,100.0,14.79,0.0,2018-04-03
206,16.86,-127.6,guerrero negro,MX,67.7,59.0,11.77,0.0,2018-04-03
207,66.67,117.55,nyurba,RU,6.05,73.0,2.59,68.0,2018-04-03
208,-10.15,162.07,kirakira,SB,82.82,100.0,10.42,80.0,2018-04-03
209,-35.92,-50.1,chuy,UY,69.23,92.0,8.75,32.0,2018-04-03
210,84.92,30.03,mehamn,NO,32.0,86.0,23.04,75.0,2018-04-03
211,-0.4,143.01,aitape,PG,80.39,96.0,6.62,76.0,2018-04-03
212,45.77,-120.13,grandview,US,41.0,69.0,25.28,90.0,2018-04-03
213,50.61,103.28,bayangol,MN,30.98,60.0,11.43,92.0,2018-04-03
214,-45.23,158.89,te anau,NZ,52.58,86.0,16.91,36.0,2018-04-03
215,44.34,-139.92,sitka,US,51.14,34.0,28.43,0.0,2018-04-03
216,-26.22,153.91,coolum beach,AU,68.15,100.0,9.64,92.0,2018-04-03
217,46.84,123.59,hulan ergi,CN,21.26,54.0,7.63,0.0,2018-04-03
218,-4.35,36.98,naberera,TZ,65.9,94.0,4.27,92.0,2018-04-03
219,57.27,109.35,alekseyevsk,RU,20.18,63.0,5.61,64.0,2018-04-03
220,17.99,83.51,poladpur,IN,71.3,97.0,5.17,0.0,2018-04-03
221,31.08,78.04,barkot,IN,52.55,79.0,3.4,0.0,2018-04-03
222,33.58,-114.4,blythe,US,87.8,15.0,4.52,1.0,2018-04-03
223,78.28,39.75,ostrovnoy,RU,28.07,93.0,3.51,80.0,2018-04-03
224,24.89,-92.12,progreso,UY,68.0,94.0,5.82,20.0,2018-04-03
225,50.99,90.24,teeli,RU,-5.15,57.0,4.52,20.0,2018-04-03
226,-12.68,-25.82,sao jose da coroa grande,BR,77.03,95.0,5.3,92.0,2018-04-03
227,-0.33,70.66,thinadhoo,MV,84.23,100.0,3.62,76.0,2018-04-03
228,22.02,131.3,nishihara,JP,60.8,77.0,1.36,1.0,2018-04-03
229,36.94,26.5,skala,GR,46.4,87.0,4.7,0.0,2018-04-03
230,-37.25,-44.6,cidreira,BR,69.02,94.0,2.84,88.0,2018-04-03
231,40.1,-99.4,kearney,US,37.4,47.0,17.22,1.0,2018-04-03
232,54.39,-29.27,grindavik,IS,30.2,74.0,14.99,40.0,2018-04-03
233,-34.11,146.32,griffith,AU,73.43,64.0,7.2,0.0,2018-04-03
234,14.11,-37.58,porto novo,BR,69.8,94.0,3.36,75.0,2018-04-03
235,53.47,157.8,yelizovo,RU,30.2,74.0,15.66,75.0,2018-04-03
236,50.95,-110.36,medicine hat,CA,35.6,34.0,8.05,20.0,2018-04-03
237,-31.82,-81.09,talcahuano,CL,55.4,93.0,6.93,90.0,2018-04-03
238,47.61,-35.89,ribeira grande,PT,60.83,100.0,16.04,56.0,2018-04-03
239,4.94,144.02,lorengau,PG,84.68,93.0,11.68,68.0,2018-04-03
240,2.52,117.14,tarakan,ID,76.4,100.0,4.74,64.0,2018-04-03
241,35.14,-46.74,torbay,CA,26.6,73.0,4.7,75.0,2018-04-03
242,-16.85,27.52,gwembe,ZM,65.24,91.0,2.95,8.0,2018-04-03
243,-46.38,-61.87,rawson,AR,71.54,41.0,4.41,76.0,2018-04-03
244,29.66,-123.07,lompoc,US,68.0,72.0,11.41,20.0,2018-04-03
245,-25.3,164.27,noumea,NC,80.6,69.0,5.82,0.0,2018-04-03
246,47.71,162.12,petropavlovsk-kamchatskiy,RU,30.2,74.0,15.66,75.0,2018-04-03
247,28.41,114.55,yichun,CN,23.21,30.0,8.1,8.0,2018-04-03
248,70.22,166.1,bilibino,RU,35.81,89.0,3.06,0.0,2018-04-03
249,4.37,-119.6,cabo san lucas,MX,80.6,47.0,6.93,5.0,2018-04-03
250,53.01,67.51,sergeyevka,KZ,16.46,83.0,7.99,0.0,2018-04-03
251,-32.13,-60.81,parana,BR,80.6,74.0,2.39,75.0,2018-04-03
252,35.25,-150.8,kahului,US,82.4,74.0,21.92,40.0,2018-04-03
253,-1.66,102.67,jambi,ID,73.34,100.0,4.85,88.0,2018-04-03
254,53.71,101.22,kuytun,RU,19.07,74.0,4.63,76.0,2018-04-03
255,5.27,47.81,hobyo,SO,80.09,89.0,8.88,80.0,2018-04-03
256,88.72,166.37,pevek,RU,33.29,80.0,3.74,0.0,2018-04-03
257,58.93,-5.45,ullapool,GB,37.34,100.0,12.24,92.0,2018-04-03
258,43.91,104.89,mandalgovi,MN,25.01,64.0,11.23,64.0,2018-04-03
259,19.36,32.71,marawi,PH,74.24,84.0,2.73,20.0,2018-04-03
260,-21.2,-43.65,barbacena,BR,73.4,73.0,3.36,75.0,2018-04-03
261,7.44,77.99,kanniyakumari,IN,83.42,100.0,7.2,0.0,2018-04-03
262,68.93,-98.89,thompson,CA,17.6,31.0,18.34,75.0,2018-04-03
263,41.11,-73.54,stamford,US,42.8,93.0,9.17,90.0,2018-04-03
264,25.44,51.91,doha,QA,80.6,24.0,2.24,0.0,2018-04-03
265,15.39,153.49,kavieng,PG,85.22,99.0,7.99,12.0,2018-04-03
266,-47.94,69.34,saint-philippe,CA,42.8,52.0,10.29,90.0,2018-04-03
267,8.31,16.9,beboto,TD,76.49,47.0,9.66,0.0,2018-04-03
268,-15.72,-50.82,itapirapua,BR,75.68,82.0,5.08,8.0,2018-04-03
269,-16.32,15.25,ondjiva,AO,64.79,98.0,3.85,92.0,2018-04-03
270,45.17,-57.02,saint-pierre,FR,50.0,93.0,12.75,0.0,2018-04-03
271,-18.52,66.18,quatre cocos,MU,80.6,88.0,8.05,75.0,2018-04-03
272,-8.59,161.93,auki,NG,68.03,49.0,2.84,0.0,2018-04-03
273,-5.52,-88.9,san cristobal,EC,60.8,63.0,10.29,75.0,2018-04-03
274,28.53,115.27,nanchang,CN,67.85,100.0,4.07,76.0,2018-04-03
275,55.68,7.84,hvide sande,DK,50.0,93.0,6.93,92.0,2018-04-03
276,14.74,-88.85,ojos de agua,HN,93.2,28.0,11.41,40.0,2018-04-03
277,3.29,31.41,yumbe,UG,66.14,99.0,4.85,88.0,2018-04-03
278,-17.33,-142.51,tautira,PF,87.8,62.0,3.36,75.0,2018-04-03
279,-22.44,36.89,inhambane,MZ,76.4,100.0,5.75,80.0,2018-04-03
280,70.95,90.32,talnakh,RU,-11.45,75.0,9.33,64.0,2018-04-03
281,20.23,100.67,chiang khong,LA,71.6,100.0,2.39,76.0,2018-04-03
282,21.77,51.35,abu samrah,SY,48.77,50.0,8.43,0.0,2018-04-03
283,-37.43,37.74,margate,AU,59.0,58.0,8.05,0.0,2018-04-03
284,44.3,72.85,shu,KZ,40.58,37.0,22.3,0.0,2018-04-03
285,-26.64,22.49,tsabong,BW,65.69,76.0,7.54,64.0,2018-04-03
286,59.66,-129.57,ketchikan,US,37.4,74.0,4.7,75.0,2018-04-03
287,63.14,63.75,igrim,RU,34.28,81.0,9.22,56.0,2018-04-03
288,51.3,-8.93,clonakilty,IE,44.6,100.0,6.93,75.0,2018-04-03
289,-27.58,148.66,roma,IT,55.4,55.0,6.93,0.0,2018-04-03
290,-16.42,125.42,kununurra,AU,71.6,78.0,6.76,0.0,2018-04-03
291,61.1,-105.33,la ronge,CA,17.6,37.0,13.87,5.0,2018-04-03
292,-17.41,22.51,shakawe,BW,72.98,46.0,10.45,20.0,2018-04-03
293,-19.55,-155.35,vaitape,PF,81.8,100.0,8.21,64.0,2018-04-03
294,14.25,-96.36,pochutla,MX,86.0,100.0,17.22,20.0,2018-04-03
295,7.17,12.41,tignere,CM,62.36,89.0,4.74,0.0,2018-04-03
296,-19.51,139.0,mount isa,AU,78.8,44.0,8.05,0.0,2018-04-03
297,-13.8,170.95,sola,NO,42.8,75.0,18.34,75.0,2018-04-03
298,-35.03,-156.9,avera,US,86.0,39.0,4.7,40.0,2018-04-03
299,16.86,118.04,catuday,PH,78.29,98.0,7.43,76.0,2018-04-03
300,-6.67,133.89,tual,ID,79.73,100.0,13.13,76.0,2018-04-03
301,1.28,12.32,oyem,GA,73.25,95.0,2.51,88.0,2018-04-03
302,-20.36,163.61,poum,MK,33.38,86.0,1.61,36.0,2018-04-03
303,-11.03,141.88,daru,SL,76.76,78.0,8.66,20.0,2018-04-03
304,55.97,91.3,kozulka,UA,46.4,65.0,4.47,0.0,2018-04-03
305,-14.61,154.59,samarai,PG,83.78,100.0,5.86,20.0,2018-04-03
306,24.51,15.24,marzuq,YE,50.75,89.0,2.39,0.0,2018-04-03
307,64.77,73.85,muravlenko,RU,12.86,79.0,15.14,92.0,2018-04-03
308,31.8,-104.38,carlsbad,CZ,51.8,53.0,3.36,0.0,2018-04-03
309,10.19,-84.96,juntas,EC,64.43,100.0,1.28,88.0,2018-04-03
310,53.4,90.44,askiz,RU,11.6,79.0,6.98,0.0,2018-04-03
311,18.98,-0.16,kidal,ML,68.39,20.0,6.76,0.0,2018-04-03
312,74.09,-2.15,klaksvik,FO,26.6,100.0,1.12,12.0,2018-04-03
313,43.98,27.75,dobromir,BG,42.8,75.0,4.7,0.0,2018-04-03
314,35.0,-90.85,forrest city,US,77.0,57.0,18.34,92.0,2018-04-03
315,11.25,0.15,ouargaye,BF,76.85,39.0,4.29,0.0,2018-04-03
316,56.28,-11.02,ballina,IE,37.16,100.0,14.03,92.0,2018-04-03
317,16.28,49.84,salalah,OM,77.0,73.0,3.36,40.0,2018-04-03
318,23.05,57.33,nizwa,OM,61.28,64.0,2.39,32.0,2018-04-03
319,67.25,-69.2,clyde river,CA,6.8,77.0,21.92,1.0,2018-04-03
320,-16.96,149.13,ayr,GB,41.0,93.0,8.32,40.0,2018-04-03
321,-25.63,43.92,beloha,MG,74.87,79.0,13.47,0.0,2018-04-03
322,70.93,-168.77,lavrentiya,RU,22.31,98.0,23.98,0.0,2018-04-03
323,-6.07,147.91,finschhafen,PG,79.28,88.0,2.62,44.0,2018-04-03
324,-0.97,0.35,takoradi,GH,82.28,96.0,8.75,8.0,2018-04-03
325,3.44,4.4,yenagoa,NG,75.95,95.0,5.53,20.0,2018-04-03
326,53.83,-43.6,nanortalik,GL,31.58,100.0,20.85,24.0,2018-04-03
327,42.57,-13.38,muros,ES,44.6,87.0,12.75,40.0,2018-04-03
328,-12.15,106.74,kawalu,ID,66.59,94.0,1.61,32.0,2018-04-03
329,9.49,-53.97,marienburg,DE,53.6,71.0,5.82,0.0,2018-04-03
330,-13.34,-79.06,lima,PE,68.96,68.0,2.71,36.0,2018-04-03
331,46.87,142.56,troitskoye,RU,9.89,83.0,4.74,0.0,2018-04-03
332,-48.13,-74.72,coihaique,CL,55.4,93.0,3.36,90.0,2018-04-03
333,50.76,17.62,brzeg,PL,46.4,75.0,6.93,0.0,2018-04-03
334,8.69,127.48,barcelona,ES,57.2,87.0,2.24,75.0,2018-04-03
335,24.9,88.3,ingraj bazar,IN,67.76,81.0,1.72,0.0,2018-04-03
336,-40.62,172.78,takaka,NZ,64.52,78.0,8.99,0.0,2018-04-03
337,6.46,-42.73,carutapera,BR,77.93,95.0,5.08,8.0,2018-04-03
338,12.42,40.66,dubti,ET,70.73,70.0,3.85,0.0,2018-04-03
339,17.57,125.28,dicabisagan,PH,75.05,100.0,3.51,56.0,2018-04-03
340,-26.67,-33.77,sao joao da barra,BR,75.2,94.0,4.7,40.0,2018-04-03
341,12.5,51.35,bereda,ES,48.2,81.0,9.17,20.0,2018-04-03
342,45.39,100.95,hovd,NO,35.6,51.0,12.75,0.0,2018-04-03
343,48.95,33.46,onufriyivka,UA,39.98,78.0,5.5,56.0,2018-04-03
344,6.42,-88.71,nicoya,CR,95.0,32.0,8.05,0.0,2018-04-03
345,-0.79,94.64,sibolga,ID,69.65,100.0,1.5,44.0,2018-04-03
346,32.28,33.64,ashqelon,IL,60.8,82.0,4.7,20.0,2018-04-03
347,59.54,37.91,cherepovets,RU,29.96,89.0,11.79,20.0,2018-04-03
348,36.55,-92.32,mountain home,US,51.8,21.0,12.75,40.0,2018-04-03
349,-32.84,159.41,port macquarie,AU,69.8,88.0,5.82,40.0,2018-04-03
350,17.56,-45.65,sinnamary,GF,79.55,98.0,7.87,92.0,2018-04-03
351,-20.33,-58.92,fuerte olimpo,BR,78.11,72.0,4.29,64.0,2018-04-03
352,31.85,36.71,sabha,LY,69.74,27.0,12.24,0.0,2018-04-03
353,-49.89,163.48,tuatapere,NZ,57.59,100.0,27.34,68.0,2018-04-03
354,18.93,85.77,puri,ID,73.79,92.0,4.18,36.0,2018-04-03
355,24.9,-59.05,codrington,AU,70.82,79.0,5.97,92.0,2018-04-03
356,52.24,127.46,shimanovsk,RU,18.8,32.0,11.45,48.0,2018-04-03
357,27.34,112.58,xiangxiang,CN,67.94,100.0,5.3,92.0,2018-04-03
358,3.34,33.98,kaabong,UG,65.51,85.0,2.39,76.0,2018-04-03
359,56.65,-114.58,slave lake,CA,23.0,53.0,9.17,20.0,2018-04-03
360,-14.76,117.56,port hedland,AU,77.0,73.0,5.82,0.0,2018-04-03
361,28.32,-64.25,hamilton,CA,39.2,100.0,24.16,90.0,2018-04-03
362,12.4,-53.57,oistins,BB,78.8,74.0,14.99,40.0,2018-04-03
363,-3.11,8.05,omboue,GA,81.71,100.0,1.95,88.0,2018-04-03
364,12.88,102.88,bo rai,TH,70.55,93.0,1.72,0.0,2018-04-03
365,-26.21,-75.15,taltal,CL,57.41,91.0,2.39,0.0,2018-04-03
366,49.06,-62.93,havre-saint-pierre,CA,30.2,58.0,12.75,90.0,2018-04-03
367,28.64,-93.48,port arthur,US,80.6,74.0,11.41,90.0,2018-04-03
368,68.93,14.05,kabelvag,NO,25.82,100.0,5.53,0.0,2018-04-03
369,7.36,-90.62,santa cruz,US,75.2,59.0,9.17,1.0,2018-04-03
370,-17.1,-148.75,tiarei,PF,87.8,62.0,3.36,75.0,2018-04-03
371,48.1,18.49,levice,SK,44.6,75.0,4.7,0.0,2018-04-03
372,28.02,-112.03,santa rosalia,IT,57.2,71.0,3.36,0.0,2018-04-03
373,0.68,-60.71,boa vista,BR,82.4,78.0,6.93,75.0,2018-04-03
374,68.09,-1.54,brae,GB,37.4,74.0,12.75,88.0,2018-04-03
375,87.88,31.21,berlevag,NO,30.2,86.0,23.04,75.0,2018-04-03
376,-34.31,177.54,whitianga,NZ,68.75,100.0,8.32,8.0,2018-04-03
377,31.38,124.62,shenjiamen,CN,61.55,91.0,15.82,92.0,2018-04-03
378,-2.24,84.0,hambantota,LK,78.65,100.0,7.31,0.0,2018-04-03
379,40.43,-11.09,peniche,PT,55.4,82.0,11.41,20.0,2018-04-03
380,48.92,129.8,arkhara,RU,23.93,33.0,13.47,32.0,2018-04-03
381,56.33,82.34,bakchar,RU,6.83,80.0,5.08,0.0,2018-04-03
382,-54.96,176.05,dunedin,NZ,62.03,49.0,17.92,12.0,2018-04-03
383,-2.1,2.93,port-gentil,GA,80.6,88.0,4.7,20.0,2018-04-03
384,-40.94,173.62,havelock,US,78.8,83.0,16.11,1.0,2018-04-03
385,-18.37,19.17,rundu,NA,79.28,36.0,5.97,100.0,2018-04-03
386,63.38,141.49,ust-nera,RU,21.86,83.0,2.62,56.0,2018-04-03
387,-21.55,-42.41,recreio,BR,69.2,99.0,3.51,92.0,2018-04-03
388,-1.19,-48.76,barcarena,BR,78.8,88.0,8.05,75.0,2018-04-03
389,8.49,113.73,balabac,PH,83.33,100.0,5.97,8.0,2018-04-03
390,51.08,-5.99,penzance,GB,48.2,93.0,20.8,75.0,2018-04-03
391,2.59,-27.82,touros,BR,81.53,84.0,12.24,92.0,2018-04-03
392,25.66,131.63,naze,NG,77.0,88.0,3.85,20.0,2018-04-03
393,-0.21,120.91,poso,ID,78.11,100.0,0.38,64.0,2018-04-03
394,-22.95,130.79,yulara,AU,66.2,32.0,6.93,0.0,2018-04-03
395,2.23,-80.24,esmeraldas,BR,80.6,69.0,5.82,20.0,2018-04-03
396,51.93,71.32,alekseyevka,RU,39.2,89.0,22.37,40.0,2018-04-03
397,61.09,28.26,lappeenranta,FI,23.0,79.0,4.7,0.0,2018-04-03
398,32.48,68.31,sharan,AF,38.78,91.0,4.63,8.0,2018-04-03
399,-33.53,39.21,richards bay,ZA,71.0,97.0,4.07,92.0,2018-04-03
400,38.87,-13.39,colares,PT,57.2,82.0,14.99,20.0,2018-04-03
401,-1.1,159.97,kieta,PG,83.96,94.0,8.43,32.0,2018-04-03
402,30.95,-80.02,saint simons,US,84.2,83.0,10.29,40.0,2018-04-03
403,9.64,-89.56,corinto,BR,75.59,63.0,5.3,20.0,2018-04-03
404,-23.85,-43.31,rio de janeiro,BR,82.4,74.0,8.05,75.0,2018-04-03
405,53.25,17.09,zlotow,PL,45.8,86.0,9.22,32.0,2018-04-03
406,20.55,3.57,tessalit,ML,65.06,23.0,3.4,0.0,2018-04-03
407,63.56,116.47,suntar,RU,12.86,72.0,2.62,64.0,2018-04-03
408,13.32,117.47,buluang,PH,78.8,88.0,2.24,90.0,2018-04-03
409,7.26,-12.23,mattru,SL,78.38,81.0,5.53,0.0,2018-04-03
410,47.09,86.74,altay,CN,5.03,76.0,2.28,12.0,2018-04-03
411,39.3,15.1,belvedere marittimo,IT,57.23,93.0,6.64,20.0,2018-04-03
412,50.73,73.04,aktau,KZ,42.8,93.0,8.95,0.0,2018-04-03
413,26.77,79.57,bidhuna,IN,72.08,60.0,3.96,32.0,2018-04-03
414,-20.74,-35.79,linhares,BR,78.92,70.0,9.66,20.0,2018-04-03
415,28.88,134.82,nichinan,JP,57.2,93.0,6.93,20.0,2018-04-03
416,52.18,-117.46,jasper,US,86.0,40.0,5.82,56.0,2018-04-03
417,-22.7,133.8,alice springs,AU,64.4,48.0,6.93,0.0,2018-04-03
418,21.13,58.73,ibra,OM,60.83,77.0,0.16,24.0,2018-04-03
419,54.1,-13.45,dingle,PH,76.58,99.0,9.1,8.0,2018-04-03
420,-49.24,-63.8,comodoro rivadavia,AR,55.4,100.0,5.82,90.0,2018-04-03
421,-11.94,54.04,sambava,MG,79.55,100.0,18.05,48.0,2018-04-03
422,-17.89,39.86,angoche,MZ,82.61,100.0,7.2,92.0,2018-04-03
423,79.03,-8.49,husavik,CA,21.41,82.0,4.41,20.0,2018-04-03
424,39.88,36.18,akdagmadeni,TR,23.39,74.0,1.72,0.0,2018-04-03
425,72.07,-145.62,fairbanks,US,23.0,41.0,13.87,1.0,2018-04-03
426,21.32,147.24,katsuura,JP,55.4,87.0,10.29,0.0,2018-04-03
427,24.88,66.88,karachi,PK,77.0,83.0,11.41,20.0,2018-04-03
428,25.9,91.9,nongpoh,IN,55.97,81.0,2.28,0.0,2018-04-03
429,14.65,29.16,bara,NG,71.45,31.0,5.97,0.0,2018-04-03
430,65.11,-73.08,iqaluit,CA,26.6,79.0,9.17,90.0,2018-04-03
431,2.64,103.88,mersing,MY,79.01,91.0,6.42,48.0,2018-04-03
432,46.55,95.71,erzin,TR,59.0,52.0,8.05,0.0,2018-04-03
433,-39.54,169.43,westport,IE,38.96,100.0,16.04,92.0,2018-04-03
434,69.49,-148.33,college,US,23.0,41.0,13.87,1.0,2018-04-03
435,71.35,158.13,cherskiy,RU,36.35,73.0,4.74,0.0,2018-04-03
436,-33.21,132.85,flinders,AU,59.0,100.0,3.36,20.0,2018-04-03
437,-9.76,34.49,njombe,TZ,61.28,99.0,3.74,92.0,2018-04-03
438,47.88,8.55,blumberg,DE,50.0,81.0,5.82,0.0,2018-04-03
439,-13.53,-77.63,san vicente de canete,PE,66.68,84.0,2.17,48.0,2018-04-03
440,-12.46,-89.62,sechura,PE,75.41,68.0,11.01,0.0,2018-04-03
441,-27.28,-57.32,laureles,MX,86.0,6.0,11.41,5.0,2018-04-03
442,-37.89,155.68,ulladulla,AU,59.0,100.0,3.36,20.0,2018-04-03
443,5.72,119.91,languyan,FR,50.0,81.0,25.28,44.0,2018-04-03
444,-37.82,-61.38,tres arroyos,AR,65.33,51.0,9.78,0.0,2018-04-03
445,51.54,-6.58,dunmore east,IE,43.55,99.0,10.89,92.0,2018-04-03
446,-7.92,7.9,soyo,AO,74.51,95.0,2.84,36.0,2018-04-03
447,50.22,-48.57,bonavista,CA,23.03,94.0,23.53,0.0,2018-04-03
448,-16.38,97.61,labuhan,ID,74.42,97.0,1.16,68.0,2018-04-03
449,55.06,39.19,krasnaya poyma,RU,19.25,81.0,4.74,0.0,2018-04-03
450,65.63,76.27,novyy urengoy,RU,-4.52,81.0,12.46,68.0,2018-04-03
451,-19.22,-64.53,padilla,CO,71.6,94.0,3.36,75.0,2018-04-03
452,4.09,-65.22,inirida,CO,73.43,95.0,1.95,88.0,2018-04-03
453,-21.61,-63.34,villamontes,BO,67.22,96.0,2.39,92.0,2018-04-03
454,-28.24,154.78,byron bay,AU,77.0,61.0,17.22,75.0,2018-04-03
455,65.02,-139.88,mayo,CA,19.4,28.0,4.7,20.0,2018-04-03
456,67.08,30.64,alakurtti,RU,27.26,83.0,8.1,92.0,2018-04-03
457,61.46,-49.4,paamiut,GL,31.76,89.0,4.41,44.0,2018-04-03
458,33.54,152.46,hasaki,JP,57.2,100.0,2.24,0.0,2018-04-03
459,-13.62,120.26,waingapu,ID,79.28,92.0,3.62,0.0,2018-04-03
460,-8.42,-26.35,pitimbu,BR,80.6,78.0,6.93,20.0,2018-04-03
461,46.96,-134.53,port hardy,CA,44.6,70.0,6.93,90.0,2018-04-03
462,0.08,-163.96,lufilufi,WS,86.0,74.0,3.36,75.0,2018-04-03
463,18.03,7.33,arlit,NE,74.87,31.0,4.85,0.0,2018-04-03
464,9.27,129.65,bacolod,PH,77.39,90.0,5.41,36.0,2018-04-03
465,7.41,-73.11,el playon,CO,86.0,55.0,4.7,40.0,2018-04-03
466,-7.52,103.22,pringsewu,ID,74.96,96.0,2.17,88.0,2018-04-03
467,-44.84,174.72,christchurch,NZ,68.0,56.0,3.36,0.0,2018-04-03
468,23.66,111.21,wuzhou,CN,71.36,76.0,3.51,48.0,2018-04-03
469,8.25,-7.82,touba,SN,77.0,65.0,9.17,24.0,2018-04-03
470,6.24,-66.35,puerto carreno,CO,95.0,44.0,5.82,40.0,2018-04-03
471,34.32,137.57,kosai,JP,59.0,87.0,2.24,0.0,2018-04-03
472,25.33,109.85,guilin,CN,69.8,88.0,2.24,40.0,2018-04-03
473,49.56,143.27,poronaysk,RU,26.09,78.0,15.82,24.0,2018-04-03
474,61.61,162.52,ossora,RU,32.3,98.0,16.49,92.0,2018-04-03
475,46.96,118.53,hailar,CN,20.78,40.0,4.74,0.0,2018-04-03
476,-11.92,27.44,lubumbashi,CD,64.61,94.0,6.42,56.0,2018-04-03
477,67.49,28.79,kuusamo,FI,28.4,86.0,11.41,90.0,2018-04-03
478,66.98,149.33,zyryanka,RU,33.65,86.0,2.62,12.0,2018-04-03
479,13.86,74.51,bhatkal,IN,82.16,100.0,8.43,20.0,2018-04-03
480,36.81,-84.34,somerset,US,78.8,44.0,18.34,1.0,2018-04-03
481,11.03,1.01,natitingou,BJ,87.8,43.0,3.36,0.0,2018-04-03
482,19.51,-92.35,carmen,PH,78.29,75.0,4.29,20.0,2018-04-03
483,37.51,80.36,shache,CN,48.5,63.0,5.86,80.0,2018-04-03
484,-13.37,-54.1,diamantino,BR,71.36,98.0,2.73,44.0,2018-04-03
485,69.77,21.9,oksfjord,NO,30.2,92.0,11.41,88.0,2018-04-03
486,61.08,161.04,evensk,RU,35.63,84.0,13.35,12.0,2018-04-03
487,59.27,11.87,orje,NO,33.8,95.0,5.82,75.0,2018-04-03
488,38.96,117.05,yangliuqing,CN,32.0,67.0,4.47,0.0,2018-04-03
489,23.52,87.53,durgapur,IN,66.5,82.0,2.73,0.0,2018-04-03
490,-13.89,-66.07,santa rosa,AR,71.09,56.0,12.01,20.0,2018-04-03
491,56.61,74.46,tara,JP,62.6,93.0,1.12,75.0,2018-04-03
492,1.81,-64.19,santa isabel do rio negro,BR,75.23,97.0,2.95,48.0,2018-04-03
493,1.22,157.67,namatanai,PG,85.49,93.0,7.99,0.0,2018-04-03
494,51.29,-110.34,provost,CA,18.53,91.0,3.06,8.0,2018-04-03
495,9.66,41.31,deder,ET,62.9,85.0,5.08,20.0,2018-04-03
496,63.64,172.78,anadyr,RU,17.6,85.0,6.71,0.0,2018-04-03
497,-21.51,35.01,beira,ES,48.2,81.0,9.17,20.0,2018-04-03
498,74.19,32.13,vardo,US,51.8,93.0,8.05,40.0,2018-04-03
499,60.21,132.05,amga,RU,8.36,50.0,8.77,20.0,2018-04-03
